City_ID,City,Lat,Lng,Max Temp,Humidity,Cloudiness,Wind Speed,Country,Date
0,saipan,15.1355,145.701,81.3,83,40,5.75,MP,1727716025
1,port-aux-francais,-49.35,70.2167,35.33,90,100,34.23,TF,1727716025
2,edinburgh of the seven seas,-37.0676,-12.3116,56.53,85,58,21.45,SH,1727716025
3,walvis bay,-22.9575,14.5053,59.52,57,0,22.88,NA,1727715860
4,blackmans bay,-43.0167,147.3167,55.72,65,93,1.99,AU,1727716025
5,puerto natales,-51.7236,-72.4875,45.05,53,40,23.02,CL,1727715919
6,grytviken,-54.2811,-36.5092,31.08,74,27,15.61,GS,1727716026
7,port mathurin,-19.6833,63.4167,72.41,84,0,21.81,MU,1727716026
8,chonchi,-42.6128,-73.8092,51.12,45,91,5.88,CL,1727715822
9,aasiaat,68.7098,-52.8699,36.1,87,100,4.65,GL,1727716026
10,terra santa,-2.1042,-56.4869,105.6,26,60,2.24,BR,1727716026
11,kasungu,-13.0333,33.4833,79.48,26,0,8.16,MW,1727716027
12,primero de mayo,-32.2552,-58.4228,92.82,42,87,13.56,AR,1727716027
13,tiksi,71.6872,128.8694,19.71,94,100,3.67,RU,1727716027
14,iqaluit,63.7506,-68.5145,43.7,70,83,3.0,CA,1727716027
15,adamstown,-25.066,-130.1015,65.82,67,33,6.62,PN,1727716027
16,tarnova,46.3167,21.8,51.15,58,83,7.25,RO,1727716027
17,puerto ayora,-0.7393,-90.3518,70.56,92,87,7.0,EC,1727716027
18,naracoorte,-36.9579,140.7383,48.27,99,17,6.53,AU,1727716027
19,mejit,10.2753,170.8646,78.67,85,100,9.15,MH,1727716028
20,alotau,-10.3069,150.4462,75.11,97,76,3.18,PG,1727716028
21,bikenibeu village,1.3673,173.1241,82.36,78,75,5.75,KI,1727716028
22,kiunga,-6.1219,141.2906,71.98,98,100,3.29,PG,1727716028
23,griffith,41.5284,-87.4237,75.06,71,100,6.91,US,1727716028
24,yaren,-0.5472,166.916,82.99,74,34,13.89,NR,1727716028
25,nguti,5.3299,9.4185,76.3,91,98,2.55,CM,1727716029
26,moree,-29.4667,149.85,55.78,52,0,5.82,AU,1727716029
27,port isabel,26.0734,-97.2086,90.03,66,40,5.99,US,1727716029
28,la'ie,21.6477,-157.9253,77.11,85,36,5.01,US,1727716029
29,hannibal,39.7084,-91.3585,78.35,57,40,0.0,US,1727715932
30,jamestown,42.097,-79.2353,70.02,77,100,4.0,US,1727715740
31,toliara,-23.35,43.6667,76.05,87,92,4.7,MG,1727716030
32,richards bay,-28.783,32.0377,61.86,88,100,2.26,ZA,1727716030
33,invercargill,-46.4,168.35,49.01,79,100,7.0,NZ,1727716030
34,verkhnevilyuysk,63.4453,120.3167,34.36,99,100,2.01,RU,1727716030
35,flying fish cove,-10.4217,105.6791,78.48,94,100,10.36,CX,1727716031
36,sao joao da barra,-21.6403,-41.0511,80.69,75,13,13.42,BR,1727716031
37,cockburn town,21.4612,-71.1419,83.68,73,5,9.78,TC,1727716031
38,gebeit,21.0667,36.3167,84.97,37,16,9.46,SD,1727716031
39,chui,-33.6971,-53.4616,78.64,65,95,10.16,UY,1727716031
40,bethel,41.3712,-73.414,71.69,64,0,6.91,US,1727716031
41,jesus de otoro,14.4833,-87.9833,83.86,62,100,3.2,HN,1727716031
42,udachny,66.4167,112.4,32.94,99,100,2.42,RU,1727716032
43,zabaykal'sk,49.6333,117.3167,33.35,53,53,13.44,RU,1727716032
44,gamba,-2.65,10.0,77.09,82,52,7.9,GA,1727716032
45,wailua homesteads,22.0669,-159.378,77.79,90,75,11.5,US,1727716032
46,st. john's,47.5649,-52.7093,60.57,86,75,6.91,CA,1727715952
47,cedeira,43.6797,-8.0209,62.98,100,99,9.93,ES,1727716032
48,ugurludag,40.4463,34.4526,60.84,62,96,12.53,TR,1727716033
49,avarua,-21.2078,-159.775,71.65,73,100,5.75,CK,1727716033
50,constantia,44.1833,28.65,48.88,90,100,30.06,RO,1727715841
51,broken hill,-31.95,141.4333,54.32,47,0,3.85,AU,1727716033
52,katsuura,35.1333,140.3,73.78,90,100,11.79,JP,1727716033
53,albany,42.6001,-73.9662,72.23,67,98,1.99,US,1727716034
54,acarau,-2.8856,-40.12,85.42,57,68,23.11,BR,1727716034
55,inarajan village,13.2736,144.7484,81.57,88,57,11.39,GU,1727716034
56,onega,63.9061,38.1404,42.44,74,63,11.3,RU,1727715942
57,waitangi,-43.9535,-176.5597,42.82,84,18,5.82,NZ,1727716034
58,sitka,57.0531,-135.33,51.69,62,75,9.22,US,1727716034
59,punta arenas,-53.15,-70.9167,41.11,70,75,33.38,CL,1727716034
60,qaqortoq,60.7167,-46.0333,39.42,98,100,4.27,GL,1727716034
61,pointe aux piments,-20.0628,57.5131,73.53,80,2,17.05,MU,1727716035
62,ardakan,32.31,54.0175,73.49,22,0,6.29,IR,1727716035
63,lethem,3.3803,-59.7968,92.25,46,100,4.79,GY,1727716035
64,sarupathar,26.1984,93.8094,75.54,96,100,2.57,IN,1727716035
65,yellowknife,62.456,-114.3525,39.42,90,98,13.0,CA,1727716035
66,lihue,21.9789,-159.3672,78.39,81,75,11.5,US,1727716035
67,sisimiut,66.9395,-53.6735,40.37,84,100,1.21,GL,1727716035
68,hermanus,-34.4187,19.2345,51.8,62,60,11.7,ZA,1727716036
69,ushuaia,-54.8,-68.3,31.66,74,100,10.36,AR,1727715979
70,lebu,-37.6167,-73.65,54.14,81,100,7.2,CL,1727715998
71,bredasdorp,-34.5322,20.0403,49.19,64,72,9.19,ZA,1727716036
72,luderitz,-26.6481,15.1594,60.08,47,0,31.34,NA,1727716036
73,margaret river,-33.95,115.0667,51.24,92,39,5.88,AU,1727716036
74,micheweni,-4.9667,39.8333,76.41,83,38,8.55,TZ,1727716036
75,pacasmayo,-7.4006,-79.5714,69.96,72,64,15.26,PE,1727716036
76,chibougamau,49.9168,-74.3659,55.02,71,100,3.44,CA,1727716037
77,georgetown,5.4112,100.3354,78.75,89,40,5.99,MY,1727715965
78,utrik,11.2278,169.8474,81.3,79,100,9.04,MH,1727716037
79,newman,37.3138,-121.0208,75.06,50,0,1.99,US,1727716037
80,clearwater,27.9659,-82.8001,91.06,73,75,7.0,US,1727715502
81,sao felix do xingu,-6.6447,-51.995,91.11,49,86,5.41,BR,1727716037
82,santiago de cao,-7.9589,-79.2392,66.33,82,72,13.8,PE,1727716037
83,waingapu,-9.6567,120.2641,79.97,80,67,4.05,ID,1727716038
84,belmonte,-15.8631,-38.8828,80.17,62,36,7.85,BR,1727716038
85,port-cartier,50.0334,-66.8654,61.27,44,0,4.45,CA,1727716038
86,schluchtern,50.3489,9.5253,52.88,93,93,9.42,DE,1727716038
87,bouza,14.4229,6.0428,99.57,16,10,9.93,NE,1727716038
88,kodiak,57.79,-152.4072,47.71,87,100,21.85,US,1727716038
89,hawaiian paradise park,19.5933,-154.9731,73.9,60,0,8.05,US,1727716039
90,thompson,55.7435,-97.8558,52.7,96,100,2.44,CA,1727716034
91,hjo,58.3013,14.2878,53.58,86,59,9.22,SE,1727716039
92,zaozersk,69.4005,32.4476,36.12,78,23,16.58,RU,1727716039
93,iskateley,67.6803,53.1512,41.41,77,87,25.3,RU,1727716039
94,dmitrovsk-orlovskiy,52.505,35.1464,60.93,35,100,15.46,RU,1727716039
95,ust-nera,64.5667,143.2,24.35,82,95,2.55,RU,1727716040
96,zonguldak,41.25,31.8333,54.12,93,100,2.73,TR,1727716040
97,stanley,54.868,-1.6985,51.82,96,75,6.91,GB,1727716040
98,atafu village,-8.5421,-172.5159,81.97,76,6,9.24,TK,1727716040
99,minas de marcona,-15.2119,-75.1103,61.63,70,87,13.31,PE,1727716040
100,college,64.8569,-147.8028,30.45,87,0,0.0,US,1727716040
101,port alfred,-33.5906,26.891,55.18,64,52,11.01,ZA,1727716041
102,mount pearl,47.5166,-52.7813,59.74,84,75,6.91,CA,1727715791
103,belyy yar,53.6039,91.3903,48.09,57,0,11.18,RU,1727716041
104,papatowai,-46.5619,169.4708,48.49,66,98,6.51,NZ,1727716041
105,enewetak,11.3474,162.3373,83.88,76,70,14.88,MH,1727716041
106,east london,-33.0153,27.9116,58.14,62,40,25.32,ZA,1727715917
107,el idrissia,34.4454,2.5275,84.34,32,13,6.62,DZ,1727716041
108,lazaro cardenas,17.9583,-102.2,83.93,70,77,1.74,MX,1727715748
109,bilibino,68.0546,166.4372,26.53,97,100,2.62,RU,1727716042
110,klyuchi,52.2667,79.1667,56.84,45,60,7.18,RU,1727716042
111,andergrove,-21.0833,149.1833,66.81,86,0,5.06,AU,1727716042
112,howrah,22.5892,88.3103,87.8,89,40,6.91,IN,1727716042
113,southside,33.9245,-86.0225,76.89,74,75,3.44,US,1727716043
114,quzhou,28.9594,118.8686,75.09,88,4,5.26,CN,1727716043
115,portland,45.5234,-122.6762,57.58,76,40,7.0,US,1727715480
116,kalmunai,7.4167,81.8167,81.28,79,94,10.25,LK,1727716043
117,keflavik,64.0049,-22.5624,39.63,75,75,9.22,IS,1727716043
118,bechar,31.6167,-2.2167,88.74,27,0,9.69,DZ,1727716044
119,tura,25.5198,90.2201,74.88,97,49,3.18,IN,1727716044
120,bairnsdale,-37.8333,147.6167,45.05,95,0,5.12,AU,1727716044
121,harper,4.375,-7.7169,77.56,84,79,9.48,LR,1727716044
122,ilulissat,69.2167,-51.1,39.22,93,100,9.22,GL,1727716044
123,bayanaul,50.7889,75.6956,53.67,42,24,1.23,KZ,1727716044
124,crane,31.3974,-102.3501,81.86,26,0,4.47,US,1727716044
125,vilyuchinsk,52.9306,158.4028,44.64,74,96,7.9,RU,1727716045
126,west island,-12.1568,96.8225,78.78,94,100,13.8,CC,1727716045
127,acapulco de juarez,16.8634,-99.8901,79.0,72,69,4.41,MX,1727715937
128,olonkinbyen,70.9221,-8.7187,28.76,62,95,13.29,SJ,1727716045
129,hithadhoo,-0.6,73.0833,82.71,76,70,13.29,MV,1727716045
130,comilla,23.4578,91.2044,78.4,94,100,4.05,BD,1727715974
131,afaahiti,-17.75,-149.2833,76.62,79,32,13.09,PF,1727716046
132,dunedin,-45.8742,170.5036,48.79,71,100,1.99,NZ,1727716046
133,puerto baquerizo moreno,-0.9,-89.6,72.59,78,100,16.11,EC,1727716046
134,ribeira grande,38.5167,-28.7,79.2,78,20,17.0,PT,1727716046
135,suzun,53.7841,82.3116,50.49,70,100,4.97,RU,1727716046
136,kuraymah,18.55,31.85,99.63,14,15,12.8,SD,1727716047
137,heihe,50.2441,127.4902,37.4,62,2,5.19,CN,1727716047
138,fortaleza,-3.7227,-38.5247,86.13,58,0,20.71,BR,1727716020
139,ruzayevka,54.0639,44.9509,59.56,29,76,7.09,RU,1727716028
140,muisne,0.6,-80.0333,78.15,72,99,9.4,EC,1727716047
141,weno,7.4515,151.8468,83.93,74,4,9.37,FM,1727716047
142,sinabang,2.4803,96.3801,78.66,84,98,4.05,ID,1727716048
143,khorixas,-20.3667,14.9667,74.98,19,0,13.22,NA,1727716048
144,pervari,37.9357,42.5493,68.43,37,0,1.92,TR,1727716048
145,xining,36.6167,101.7667,36.73,88,99,2.64,CN,1727716048
146,new norfolk,-42.7826,147.0587,55.92,77,75,10.6,AU,1727716049
147,jiwani,25.05,61.7417,82.22,80,1,10.67,PK,1727716049
148,anadyr,64.75,177.4833,43.3,93,75,21.99,RU,1727716049
149,lyepyel',54.8814,28.6932,48.67,54,100,13.13,BY,1727716049
150,berezovyy,51.6667,135.7,31.6,99,100,1.81,RU,1727716049
151,shizunai-furukawacho,42.3339,142.3669,61.7,84,16,6.13,JP,1727716050
152,tazacorte,28.629,-17.9293,75.15,82,20,13.8,ES,1727716050
153,redencao,-4.2258,-38.7306,97.86,28,45,9.53,BR,1727716050
154,uturoa,-16.7333,-151.4333,79.43,78,6,11.36,PF,1727716050
155,salinopolis,-0.6136,-47.3561,83.93,69,72,15.19,BR,1727716050
156,boundiali,9.5217,-6.4869,82.0,80,62,3.49,CI,1727716050
157,qusmuryn,52.4503,64.6311,58.86,31,7,4.97,KZ,1727716050
158,hami,42.8,93.45,52.79,20,0,2.28,CN,1727716051
159,necochea,-38.5473,-58.7368,64.24,52,100,14.18,AR,1727716051
160,alo,6.5486,4.2686,78.8,85,63,10.56,NG,1727716051
161,nemuro,43.3236,145.575,62.31,96,100,13.89,JP,1727715972
162,darwin,-12.4611,130.8418,80.58,83,5,3.44,AU,1727715824
163,tangalle,6.024,80.7911,79.16,85,97,5.93,LK,1727716052
164,christchurch,-43.5333,172.6333,42.42,90,34,1.99,NZ,1727715866
165,hasaki,35.7333,140.8333,74.48,84,100,11.99,JP,1727716052
166,tenenkou,14.4572,-4.9169,94.41,37,70,1.16,ML,1727716052
167,kruisfontein,-34.0033,24.7314,50.85,58,39,24.67,ZA,1727716052
168,polyarnyy,69.1989,33.4478,37.83,75,39,18.16,RU,1727716052
169,carnarvon,-24.8667,113.6333,67.6,72,0,18.25,AU,1727716053
170,ebon,4.582,168.6964,83.41,73,96,14.99,MH,1727716053
171,amga,60.8953,131.9608,33.37,96,99,5.14,RU,1727716053
172,puerto el triunfo,13.2833,-88.55,80.56,84,100,5.03,SV,1727716053
173,mitu,1.1983,-70.1733,93.0,43,99,2.48,CO,1727716053
174,"laikit, laikit ii (dimembe)",1.4792,124.9735,72.45,94,20,2.3,ID,1727716053
175,narvik,68.4384,17.4272,40.8,88,100,14.2,NO,1727716054
176,buka,40.8108,69.1986,56.79,57,67,1.92,UZ,1727716054
177,port augusta,-32.5,137.7667,52.66,73,0,8.95,AU,1727716054
178,palopo,-2.9996,120.1921,76.75,79,100,2.57,ID,1727716054
179,kailua-kona,19.6406,-155.9956,75.6,78,0,4.61,US,1727716054
180,mana,5.6592,-53.7767,86.41,64,18,12.71,GF,1727716054
181,susuman,62.7833,148.1667,25.57,66,96,2.53,RU,1727716054
182,semporna,4.4818,118.6112,78.85,83,99,1.01,MY,1727716055
183,jalai nur,49.45,117.7,34.72,49,19,8.79,CN,1727716055
184,kamina,-8.7386,24.9906,82.13,35,99,6.58,CD,1727716055
185,saguenay,48.4168,-71.0657,64.08,65,4,1.05,CA,1727716055
186,puerto palomas,31.7667,-107.6167,81.39,19,0,3.91,MX,1727716055
187,whitehorse,60.7161,-135.0538,37.29,69,6,2.37,CA,1727716056
188,kingston,17.997,-76.7936,85.15,74,75,8.05,JM,1727715917
189,hammerfest,70.6634,23.6821,37.85,81,40,2.3,NO,1727716056
190,shache,38.4167,77.2406,55.54,57,87,12.86,CN,1727716056
191,peterhead,57.5058,-1.7981,54.34,82,97,12.75,GB,1727716056
192,isafjordur,66.0755,-23.124,37.44,60,40,2.3,IS,1727716056
193,hadibu,12.65,54.0333,79.74,79,28,9.71,YE,1727716056
194,kamaishi,39.2667,141.8833,61.57,85,0,5.5,JP,1727716057
195,utete,-7.986,38.758,76.3,68,38,8.75,TZ,1727716057
196,baiyin,36.5583,104.2081,44.37,47,100,3.29,CN,1727716057
197,birao,10.2849,22.7882,74.86,79,99,4.88,CF,1727716057
198,mpika,-11.8343,31.4529,75.36,25,6,4.65,ZM,1727716057
199,tan-tan,28.438,-11.1032,75.15,73,40,13.8,MA,1727715771
200,port douglas,-16.4833,145.4667,71.94,78,81,4.03,AU,1727716057
201,guiuan,11.0333,125.7247,83.88,78,96,11.72,PH,1727716058
202,baruun-urt,46.6806,113.2792,33.51,69,96,4.5,MN,1727716058
203,tommot,58.9564,126.2925,35.6,93,99,9.73,RU,1727716058
204,santa elena de uairen,4.6167,-61.1333,80.17,56,100,3.78,VE,1727716058
205,bra,44.703,7.8556,63.05,73,81,5.59,IT,1727716058
206,coquimbo,-29.9533,-71.3436,60.53,67,75,11.5,CL,1727715858
207,selfoss,63.9331,-20.9971,41.04,58,88,3.33,IS,1727716059
208,longyearbyen,78.2186,15.6401,31.84,80,75,10.36,SJ,1727716059
209,san antonio de pale,-1.4014,5.6325,77.45,83,70,10.67,GQ,1727716059
210,mena,51.5217,32.2157,61.45,36,100,11.32,UA,1727716059
211,kalaleh,37.3807,55.4916,68.18,48,0,3.71,IR,1727716059
212,cabo san lucas,22.8909,-109.9124,84.76,81,20,6.91,MX,1727716059
213,saint-philippe,-21.3585,55.7679,71.49,79,6,13.06,RE,1727716060
214,lubango,-14.9172,13.4925,70.16,38,85,8.37,AO,1727716060
215,swakopmund,-22.6833,14.5333,57.97,73,3,15.99,NA,1727716060
216,colonia,50.9333,6.95,59.05,88,100,12.66,DE,1727716060
217,madinat sittah uktubar,29.8167,31.05,80.56,53,0,23.4,EG,1727716060
218,arrifes,37.7667,-25.7,75.45,88,20,13.8,PT,1727716060
219,faya-largeau,17.9257,19.1043,96.84,16,44,13.71,TD,1727716060
220,nova sintra,14.8667,-24.7167,81.32,82,4,12.68,CV,1727716061
221,souillac,-20.5167,57.5167,73.78,73,20,13.8,MU,1727716061
222,ingeniero jacobacci,-41.3427,-69.5448,54.63,29,55,30.06,AR,1727716061
223,boguchany,58.3814,97.4531,43.52,95,100,9.46,RU,1727716061
224,bingham,52.9498,-0.9591,57.74,96,100,5.99,GB,1727716061
225,robore,-18.3333,-59.75,107.67,17,43,14.0,BO,1727715796
226,akureyri,65.6835,-18.0878,37.42,74,100,1.79,IS,1727716061
227,newcastle west,52.4492,-9.0611,56.52,81,4,9.48,IE,1727716062
228,sandpoint,48.2766,-116.5533,54.05,52,0,4.61,US,1727716062
229,fale old settlement,-9.3852,-171.2468,81.5,78,35,8.63,TK,1727716062
230,ortona,42.3496,14.4039,63.66,70,7,3.38,IT,1727716062
231,vallenar,-28.5708,-70.7581,67.59,25,24,9.33,CL,1727716062
232,shalqar,47.8333,59.6,63.03,29,0,10.63,KZ,1727716062
233,road town,18.4167,-64.6167,89.64,66,40,5.75,VG,1727716063
234,port lincoln,-34.7333,135.8667,53.78,90,0,6.8,AU,1727716063
235,port elizabeth,-33.918,25.5701,52.32,83,50,14.0,ZA,1727716063
236,kabompo,-13.5927,24.2008,83.08,30,45,4.94,ZM,1727716063
237,yigo village,13.5361,144.8886,80.89,83,40,8.05,GU,1727716063
238,konsoy,40.4915,69.7025,58.14,42,61,6.42,TJ,1727716063
239,argo,37.6333,22.7333,69.49,70,0,5.88,GR,1727716064
240,aykhal,66.0,111.5,35.06,100,100,3.15,RU,1727716064
241,khovd,48.0056,91.6419,40.77,29,100,1.57,MN,1727715904
242,rio grande,-32.035,-52.0986,75.65,71,87,9.57,BR,1727715831
243,kingaroy,-26.5333,151.8333,56.7,95,64,5.32,AU,1727716064
244,revda,56.801,59.9303,54.52,58,100,10.31,RU,1727716064
245,nar'yan-mar,67.6713,53.087,41.36,77,86,25.39,RU,1727716064
246,barnhart,38.3442,-90.3934,80.15,76,47,5.41,US,1727715773
247,lamitan city,6.6608,122.1408,77.54,83,100,3.0,PH,1727716065
248,puerto san jose,13.9256,-90.8244,84.25,70,75,6.91,GT,1727716065
249,aioun,16.6614,-9.6149,103.14,19,89,3.27,MR,1727716065
250,tazovsky,67.4667,78.7,39.88,83,100,24.23,RU,1727716065
251,beichengqu,40.4394,113.1536,41.16,54,3,11.81,CN,1727716065
252,balcarce,-37.8462,-58.2552,65.82,90,100,1.99,AR,1727716066
253,mancio lima,-7.6142,-72.8958,95.2,38,45,4.72,BR,1727716066
254,ayame,5.6083,-3.1563,79.11,85,88,4.88,CI,1727716066
255,nouadhibou,20.931,-17.0347,76.98,61,99,16.11,MR,1727716066
256,arkhangel'sk,64.5401,40.5433,42.91,81,40,11.18,RU,1727716066
257,sorong,-0.8833,131.25,78.96,84,100,4.72,ID,1727716067
258,sarangani,5.4033,125.4636,84.29,72,100,7.87,PH,1727716067
259,cestos city,5.46,-9.5828,78.8,85,87,8.57,LR,1727716067
260,dailekh,28.8333,81.6667,71.22,94,46,1.92,NP,1727716067
261,san carlos,9.6612,-68.5827,85.89,63,33,4.14,VE,1727716067
262,hilo,19.7297,-155.09,74.12,60,0,8.05,US,1727715845
263,conception bay south,47.4999,-52.9981,60.33,83,100,8.57,CA,1727716067
264,inhambane,-23.865,35.3833,74.23,85,62,10.18,MZ,1727716068
265,baiti,13.745,-14.7482,90.75,60,96,2.82,SN,1727716068
266,carbonear,47.7332,-53.2148,61.02,84,100,10.22,CA,1727716068
267,tocopilla,-22.092,-70.1979,68.23,67,45,13.04,CL,1727716068
268,castillos,-34.1667,-53.8333,83.8,58,100,11.25,UY,1727716068
269,auki,-8.7676,160.7034,75.72,88,18,4.16,SB,1727716068
270,margate,51.3813,1.3862,57.87,78,92,1.99,GB,1727715670
271,kolonia town,6.964,158.206,83.59,74,19,9.13,FM,1727716069
272,khvoynaya,58.9,34.5333,41.65,68,75,4.83,RU,1727716069
273,nantucket,41.2835,-70.0995,68.11,52,0,11.5,US,1727715982
274,dudinka,69.4058,86.1778,41.36,85,100,9.1,RU,1727715787
275,onguday,50.75,86.15,41.36,77,100,1.16,RU,1727716070
276,palora,-1.7,-77.9333,75.31,51,95,1.36,EC,1727716070
277,fauske,67.2588,15.3918,45.95,84,100,7.45,NO,1727716070
278,aghstafa,41.1189,45.4539,62.85,47,0,3.71,AZ,1727716070
279,srikakulam,18.3,83.9,80.82,91,20,8.14,IN,1727716070
280,magadan,59.5667,150.8,35.47,59,86,5.37,RU,1727716070
281,egilsstadir,65.2653,-14.3948,35.53,73,96,3.13,IS,1727716070
282,olinda,-8.0089,-34.8553,83.93,54,40,14.97,BR,1727716070
283,novyy urengoy,66.0833,76.6333,39.7,80,73,17.25,RU,1727716071
284,mahina,-17.5065,-149.489,78.57,69,0,6.91,PF,1727716071
285,novyy urgal,51.0736,132.5642,35.6,83,94,3.22,RU,1727716071
286,zhicheng,30.2956,111.5047,62.04,84,100,3.44,CN,1727716071
287,san patricio,28.017,-97.5169,89.55,41,0,1.43,US,1727716071
288,woodward,36.4337,-99.3904,91.96,25,0,11.5,US,1727716071
289,rawlins,41.7911,-107.2387,69.69,17,0,19.57,US,1727716071
290,mogocha,53.7333,119.7667,27.03,81,11,2.59,RU,1727716072
291,samamiya,11.3487,9.6399,88.45,47,26,4.97,NG,1727716072
292,ghat,24.9647,10.1728,89.51,16,0,14.25,LY,1727716072
293,mugia,43.1041,-9.2179,67.91,97,100,12.75,ES,1727716072
294,khandyga,62.6667,135.6,30.13,97,95,3.02,RU,1727716072
295,scottburgh,-30.2867,30.7532,57.67,87,100,3.96,ZA,1727716072
296,suntar,62.1444,117.6319,38.62,97,100,10.07,RU,1727716072
297,canutama,-6.5339,-64.3831,91.8,48,99,4.32,BR,1727716073
298,trelissac,45.1977,0.7862,65.16,68,100,6.87,FR,1727716073
299,quelimane,-17.8786,36.8883,82.35,78,0,14.97,MZ,1727716073
300,northam,51.0333,-4.2167,56.61,86,99,20.58,GB,1727716073
301,corinto,37.9407,22.9573,73.11,54,0,2.28,GR,1727716073
302,labrador city,52.9463,-66.9114,59.18,45,40,6.91,CA,1727715880
303,maintirano,-18.0667,44.0167,78.04,76,0,5.59,MG,1727716073
304,port saint john's,-31.6229,29.5448,60.89,60,90,3.06,ZA,1727716074
305,mermoz boabab,14.7065,-17.4758,83.12,72,46,5.64,SN,1727716074
306,mamuju,-2.6748,118.8885,78.76,87,100,3.4,ID,1727716074
307,aonla,28.2833,79.15,79.99,75,0,3.87,IN,1727715819
308,ilebo,-4.3167,20.5833,78.73,73,86,4.5,CD,1727716074
309,ancud,-41.8697,-73.8203,47.19,51,60,10.16,CL,1727716074
310,codrington,-38.2667,141.9667,51.76,94,33,12.55,AU,1727716074
311,garoowe,8.4054,48.4845,85.6,48,99,17.02,SO,1727716075
312,ksar chellala,35.2122,2.3189,86.09,34,12,12.91,DZ,1727716075
313,mirante do paranapanema,-22.2919,-51.9064,102.67,13,0,9.78,BR,1727716075
314,antsiranana,-12.2787,49.2917,75.49,82,20,14.97,MG,1727716035
315,uliastay,47.7417,96.8444,32.76,36,100,2.93,MN,1727716075
316,brisas de zicatela,15.8369,-97.0419,80.37,78,100,5.12,MX,1727716076
317,zemio,5.0314,25.1361,71.51,91,56,3.71,CF,1727716076
318,tshikapa,-6.4167,20.8,81.86,52,63,2.86,CD,1727716076
319,nadym,65.5333,72.5167,40.93,73,92,18.57,RU,1727716076
320,fairfield,41.2668,-73.3162,70.61,66,100,1.99,US,1727715658
321,karasu,41.071,30.7854,60.76,85,99,11.54,TR,1727716077
322,tabou,4.423,-7.3528,77.49,84,82,8.9,CI,1727716077
323,maputo,-25.9653,32.5892,68.23,76,75,10.0,MZ,1727716065
324,yeosu,34.7546,127.6599,70.27,83,38,3.62,KR,1727716077
325,itoman,26.1247,127.6694,82.78,86,75,9.22,JP,1727716077
326,lorengau,-2.0226,147.2712,81.68,82,93,9.69,PG,1727716077
327,laguna,38.421,-121.4238,74.21,50,0,4.61,US,1727716078
328,namdrik,5.5994,168.1028,82.94,73,100,18.95,MH,1727716078
329,trimbak,19.9333,73.55,71.76,92,7,0.81,IN,1727716078
330,rikaze,29.25,88.8833,59.83,46,33,0.76,CN,1727716078
331,lompoc,34.6391,-120.4579,70.21,77,0,0.0,US,1727716078
332,komarichi,52.4151,34.7905,60.21,36,100,14.65,RU,1727716079
333,santana,-0.0583,-51.1817,95.18,46,20,11.5,BR,1727715978
334,saldanha,-33.0117,17.9442,52.57,51,29,12.95,ZA,1727716079
335,paithan,19.4833,75.3833,78.66,79,6,7.09,IN,1727716079
336,arendal,58.4615,8.7725,51.01,79,100,10.49,NO,1727716079
337,gadzhiyevo,69.2551,33.3362,37.31,77,30,17.96,RU,1727716079
338,prince rupert,54.3161,-130.3201,47.89,81,100,21.85,CA,1727715960
339,luganville,-15.5333,167.1667,75.45,90,5,4.27,VU,1727715980
340,badagry,6.4167,2.8833,79.32,82,78,11.83,NG,1727716080
341,deir ez-zor,35.3359,40.1408,86.99,16,0,6.02,SY,1727716080
342,angaur state,6.906,134.13,83.48,78,94,13.13,PW,1727716080
343,inyonga,-6.7167,32.0667,82.38,36,42,8.03,TZ,1727716080
344,new ulm,44.3125,-94.4605,81.43,40,0,18.41,US,1727716080
345,patterson,37.4716,-121.1297,75.15,50,0,5.41,US,1727716080
346,porto novo,6.4965,2.6036,79.79,78,95,10.02,BJ,1727716081
347,petropavlovsk-kamchatsky,53.0452,158.6483,42.31,73,97,13.13,RU,1727716081
348,la passe,45.5549,-0.8967,62.83,80,98,10.71,FR,1727716081
349,youssoufia,32.2463,-8.5294,90.48,33,61,16.67,MA,1727716081
350,kerman,30.2832,57.0788,76.86,23,20,9.22,IR,1727716081
351,lahij,13.1667,44.5833,85.84,60,71,6.53,YE,1727716082
352,borogontsy,62.6683,131.1683,23.41,99,52,1.79,RU,1727716082
353,noyemberyan,41.1724,44.9992,52.68,62,2,5.95,AM,1727716082
354,salmon arm,50.6998,-119.3024,52.32,74,6,1.41,CA,1727716082
355,fort-shevchenko,44.5086,50.263,68.88,35,0,11.39,KZ,1727716082
356,severo-yeniseyskiy,60.3725,93.0408,43.47,97,100,8.61,RU,1727716082
357,fada,7.25,4.0667,76.42,95,70,4.63,NG,1727716082
358,hamilton,39.1834,-84.5333,73.11,94,75,6.91,US,1727716083
359,kidal,18.4411,1.4078,103.5,15,41,13.02,ML,1727716083
360,praia da vitoria,38.7333,-27.0667,76.17,80,55,11.16,PT,1727716083
361,batamshinskiy,50.5594,58.2747,57.52,34,4,9.08,KZ,1727716083
362,alice springs,-23.7,133.8833,51.35,50,1,4.61,AU,1727716083
363,salalah,17.0151,54.0924,79.07,84,59,10.87,OM,1727715802
364,marsh harbour,26.5412,-77.0636,83.91,67,90,8.08,BS,1727716084
365,safotu,-13.4513,-172.4018,80.55,84,99,17.45,WS,1727716084
366,bel air riviere seche,-20.2542,57.7453,73.11,73,15,13.65,MU,1727716084
367,mbuji-mayi,-6.15,23.6,83.93,45,96,4.61,CD,1727716084
368,halabjah,35.1778,45.9861,76.1,23,0,8.99,IQ,1727715910
369,nurota,40.5614,65.6886,61.72,52,35,7.23,UZ,1727716084
370,as sulayyil,20.4607,45.5779,92.07,12,1,8.61,SA,1727716084
371,broome,42.2506,-75.833,72.63,65,0,4.61,US,1727716085
372,pisco,-13.7,-76.2167,65.01,77,100,8.05,PE,1727716085
373,hove,50.8309,-0.1672,59.32,89,75,17.27,GB,1727716085
374,panama city beach,30.1766,-85.8055,87.06,66,40,5.75,US,1727716017
375,baja,46.175,18.9564,54.23,50,35,5.08,HU,1727716085
376,arteche,12.2645,125.4048,77.36,93,100,4.63,PH,1727716085
377,live oak,36.9836,-121.9805,82.18,53,0,1.12,US,1727716085
378,saint-louis,16.3333,-15.0,98.37,31,100,3.98,SN,1727716086
379,kokopo,-4.352,152.2633,76.95,86,61,6.85,PG,1727716086
380,saudarkrokur,65.7461,-19.6394,36.46,74,100,5.19,IS,1727716086
381,qashyr,53.0675,76.1036,58.6,44,20,7.67,KZ,1727716086
382,bandarbeyla,9.4942,50.8122,77.09,87,6,19.6,SO,1727716086
383,huilong,31.8111,121.655,74.84,93,42,5.06,CN,1727716086
384,morehead city,34.7229,-76.726,86.05,75,1,5.99,US,1727715810
385,fort st. john,56.2499,-120.8529,41.63,53,0,8.12,CA,1727716086
386,dinghaicun,26.2847,119.7936,80.44,81,67,24.2,CN,1727716087
387,remire-montjoly,4.9167,-52.2667,93.24,59,40,12.66,GF,1727716079
388,abadan,30.3392,48.3043,86.61,66,0,12.82,IR,1727716087
389,greymouth,-42.4667,171.2,44.29,94,100,4.83,NZ,1727716087
390,queenstown,-31.8976,26.8753,43.47,66,76,16.37,ZA,1727716087
391,khanty-mansiysk,61.0042,69.0019,53.71,58,0,8.95,RU,1727716087
392,karratha,-20.7377,116.8463,77.4,56,0,9.15,AU,1727716087
393,misratah,32.3754,15.0925,76.6,53,0,10.36,LY,1727716088
394,mormugao,15.4,73.8,81.66,89,75,6.91,IN,1727716088
395,butte,39.6499,-121.5677,76.3,40,0,4.61,US,1727716017
396,arraial do cabo,-22.9661,-42.0278,78.66,65,0,24.16,BR,1727716088
397,kavaratti,10.5669,72.642,83.98,77,61,11.7,IN,1727716088
398,askoy,60.4092,5.226,55.69,67,0,3.44,NO,1727716089
399,grand falls-windsor,48.9332,-55.6649,58.5,89,100,2.71,CA,1727716089
400,palangkaraya,-2.2,113.8333,74.95,82,89,1.12,ID,1727716089
401,daru,-9.0763,143.2092,77.25,72,23,14.14,PG,1727716089
402,pemangkat,1.1667,108.9667,79.83,80,100,4.12,ID,1727716090
403,giridih,24.1833,86.3,79.77,84,41,5.61,IN,1727716090
404,tromso,69.6496,18.957,39.22,81,75,17.27,NO,1727715921
405,usinsk,65.9939,57.5281,40.17,80,87,22.48,RU,1727715801
406,trinidad,-14.8333,-64.9,96.78,44,40,14.97,BO,1727716090
407,moyynkum,44.2914,72.9469,60.96,21,93,16.4,KZ,1727716091
408,veragua arriba,19.5833,-70.3333,90.88,55,28,9.4,DO,1727716091
409,kudahuvadhoo,2.6708,72.8944,83.21,75,100,14.09,MV,1727716091
410,kapuskasing,49.4169,-82.4331,63.34,49,4,9.44,CA,1727716091
411,talnakh,69.4865,88.3972,41.56,94,100,6.58,RU,1727716091
412,gargalianoi,37.0667,21.6333,67.14,63,0,16.15,GR,1727716092
413,cidreira,-30.1811,-50.2056,75.31,63,2,10.92,BR,1727716092
414,nobres,-14.7203,-56.3275,107.91,14,80,8.68,BR,1727715879
415,el alto,-4.2714,-81.2147,69.57,73,71,7.31,PE,1727716092
416,melendugno,40.2747,18.3368,64.06,52,0,16.93,IT,1727716092
417,chos malal,-37.3781,-70.2709,49.42,63,95,11.18,AR,1727716092
418,roxas,11.5853,122.7511,79.43,83,100,2.39,PH,1727716093
419,nanjing,32.0617,118.7778,71.89,92,100,14.07,CN,1727716093
420,oruro,-17.9833,-67.15,70.29,37,40,5.75,BO,1727716093
421,bang saphan,11.2126,99.5117,78.76,86,89,5.46,TH,1727716093
422,balaipungut,1.05,101.2833,75.24,95,55,1.83,ID,1727716093
423,kerikeri,-35.2268,173.9474,52.92,92,99,7.65,NZ,1727716093
424,al miqdadiyah,33.9786,44.9369,87.67,19,0,1.66,IQ,1727716034
425,menongue,-14.6585,17.691,81.39,17,87,5.7,AO,1727716094
426,chhagalnaiya,23.03,91.5069,78.44,94,90,4.52,BD,1727716094
427,nyurba,63.2842,118.3319,35.06,98,100,5.03,RU,1727716094
428,palencia,42.4167,-4.5,72.14,45,100,6.93,ES,1727716094
429,qamdo,31.1667,97.2333,45.34,58,69,4.68,CN,1727715915
430,al jubayl,27.0112,49.6583,88.41,70,0,18.28,SA,1727716095
431,holualoa,19.6228,-155.9522,71.87,77,0,4.61,US,1727716095
432,jinka,5.65,36.65,65.59,82,77,2.42,ET,1727716095
433,kattivakkam,13.2167,80.3167,84.29,88,4,8.84,IN,1727716095
434,berezanskaya,45.7056,39.5932,75.04,20,0,17.92,RU,1727716095
435,dawson creek,55.7666,-120.2362,46.65,42,0,16.69,CA,1727716095
436,carutapera,-1.195,-46.02,85.32,61,86,11.01,BR,1727716096
437,churachandpur,24.3333,93.6667,72.19,84,100,4.0,IN,1727716096
438,tanout,14.9709,8.8879,96.37,11,83,6.91,NE,1727716094
439,as saffaniyah,27.9708,48.73,87.35,68,0,18.3,SA,1727716096
440,venkatagiri,13.9667,79.5833,83.44,66,0,4.68,IN,1727716096
441,tolanaro,-25.0319,46.9987,73.53,85,97,15.19,MG,1727716096
442,monywa,22.1167,95.1333,83.53,80,100,4.43,MM,1727716093
443,bollnas,61.3482,16.3946,47.62,83,97,5.41,SE,1727716096
444,phetchabun,16.25,101.0833,76.78,89,100,2.35,TH,1727716097
445,melfort,52.8667,-104.6177,47.28,64,100,26.13,CA,1727716097
446,dejen,10.1667,38.1333,55.45,85,99,5.19,ET,1727716097
447,adrar,20.5022,-10.0711,102.36,13,77,14.09,MR,1727716097
448,garissa,-0.4536,39.6401,87.93,45,90,17.69,KE,1727716097
449,fort mcmurray,56.7268,-111.381,49.26,48,9,10.07,CA,1727716097
450,tindouf,27.6711,-8.1474,98.4,12,32,5.7,DZ,1727716097
451,badger,64.8,-147.5333,30.36,82,20,0.0,US,1727716098
452,dalnegorsk,44.5604,135.5701,55.62,83,100,5.21,RU,1727716098
453,malango,-2.9627,119.9001,67.01,91,100,2.55,ID,1727716098
454,boa vista,2.8197,-60.6733,85.98,58,75,6.91,BR,1727716098
455,callao,-12.0667,-77.15,66.49,72,75,14.97,PE,1727716098
456,dryden,49.7833,-92.7503,72.81,46,61,17.43,CA,1727716058
457,shubarshi,48.5872,57.1869,59.67,28,0,9.15,KZ,1727716099
458,ocean shores,46.9737,-124.1563,54.01,88,85,5.01,US,1727716099
459,esfarayen,37.0765,57.5101,58.26,27,0,2.3,IR,1727716099
460,timmins,48.4669,-81.3331,62.65,49,2,6.6,CA,1727716099
461,nabire,-3.3667,135.4833,76.93,90,100,2.93,ID,1727716099
462,palmer,42.1584,-72.3287,74.52,55,100,1.99,US,1727716034
463,taltal,-25.4,-70.4833,62.56,70,37,8.37,CL,1727716099
464,alofi,-19.0595,-169.9187,71.49,83,100,12.66,NU,1727716099
465,lerwick,60.1545,-1.1494,53.11,86,100,10.98,GB,1727716100
466,ulanhot,46.0833,122.0833,40.01,45,7,6.53,CN,1727716100
467,businga,3.3333,20.8833,72.12,96,99,3.78,CD,1727716100
468,sechura,-5.5569,-80.8222,77.74,58,90,9.91,PE,1727716099
469,sarakhs,36.5449,61.1577,62.87,15,0,4.65,IR,1727716100
470,tailai,46.3833,123.4,43.23,45,62,7.0,CN,1727716100
471,ilhabela,-23.7781,-45.3581,77.74,70,4,6.87,BR,1727715852
472,dolores,-36.3132,-57.6792,77.38,67,100,8.99,AR,1727716101
473,eforie sud,44.0229,28.6494,50.97,91,100,31.81,RO,1727716101
474,nahiyat saddat al hindiyah,32.7147,44.2803,88.03,16,0,6.15,IQ,1727716101
475,corner brook,48.9667,-57.9484,57.76,75,100,1.79,CA,1727716101
476,santa cruz,-17.8,-63.1667,96.85,46,34,25.32,BO,1727715850
477,blackwater,-23.5833,148.8833,71.98,45,64,9.95,AU,1727716101
478,kaa-khem,51.6833,94.7333,40.89,39,100,3.15,RU,1727716101
479,vernon,50.2581,-119.2691,50.45,64,7,4.0,CA,1727716101
480,labytnangi,66.6572,66.4183,40.68,72,21,21.05,RU,1727716042
481,urucui,-7.2294,-44.5561,102.22,21,81,8.23,BR,1727716102
482,mangrol,21.1167,70.1167,81.32,87,32,11.25,IN,1727716102
483,pupri,26.4833,85.7167,80.38,86,39,5.95,IN,1727716102
484,barra de santo antonio,-9.4047,-35.5072,78.49,59,83,12.68,BR,1727716102
485,balabac,7.9868,117.0645,80.08,83,92,3.04,PH,1727716102
486,bardai,11.65,7.2333,85.12,58,50,2.1,NG,1727716102
487,goundi,9.3627,17.366,80.71,77,74,0.67,TD,1727716103
488,al hayy,32.1735,46.0433,93.27,12,0,6.76,IQ,1727716103
489,puerto ayacucho,5.6639,-67.6236,85.77,65,94,3.02,VE,1727716103
490,antofagasta,-23.65,-70.4,61.88,74,16,9.75,CL,1727716103
491,manaure,11.7751,-72.4445,77.81,72,100,6.2,CO,1727716103
492,cill airne,52.05,-9.5167,57.25,82,40,6.91,IE,1727716104
493,es castell,39.8795,4.2854,72.28,68,0,6.91,ES,1727716104
494,fortuna,40.5982,-124.1573,54.52,94,0,3.44,US,1727716104
495,aur,8.1499,171.1687,77.63,85,100,11.41,MH,1727716104
496,sibu,2.3,111.8167,74.41,95,100,0.38,MY,1727716104
497,ulladulla,-35.35,150.4667,50.63,88,3,3.6,AU,1727716104
498,zavitinsk,50.1167,129.45,35.28,78,38,6.35,RU,1727716104
499,vila franca do campo,37.7167,-25.4333,77.41,89,81,11.61,PT,1727716104
500,bubaque,11.2833,-15.8333,82.08,74,76,6.17,GW,1727716105
501,allonnes,47.9674,0.1581,60.84,88,75,9.22,FR,1727716105
502,slivnitsa,42.85,23.0333,50.9,57,54,11.63,BG,1727716105
503,ascension,30.2169,-90.9001,86.07,63,0,1.01,US,1727716105
504,nea alikarnassos,35.3333,25.1667,71.28,68,20,5.75,GR,1727716105
505,fuglafjordur,62.244,-6.814,43.27,81,100,11.52,FO,1727716105
506,chhor,25.5167,69.7667,92.35,43,15,15.23,PK,1727716105
507,smithers,54.7804,-127.1743,40.33,79,92,3.18,CA,1727716063
508,xapuri,-10.6517,-68.5044,98.1,30,100,5.86,BR,1727716106
509,malvik,63.4333,10.6833,47.79,82,75,2.3,NO,1727716106
510,ledec nad sazavou,49.6952,15.2777,52.48,76,86,6.15,CZ,1727716106
511,tibanbang,6.6315,126.1055,80.73,80,88,3.33,PH,1727716106
512,karagandy,49.8019,73.1021,37.35,41,16,7.25,KZ,1727716106
513,nogliki,51.8333,143.1667,48.24,93,100,11.72,RU,1727716106
514,masterton,-40.9597,175.6575,44.1,95,84,2.19,NZ,1727716106
515,grootfontein,-19.5667,18.1167,77.97,8,0,7.29,NA,1727716107
516,snowflake,34.5134,-110.0785,83.52,18,69,7.52,US,1727716107
517,vorgashor,67.5833,63.95,38.48,77,84,26.51,RU,1727716107
518,jayapura,-2.5333,140.7,78.19,93,83,4.7,ID,1727716107
519,lucapa,-8.4192,20.7447,77.79,53,67,1.9,AO,1727716107
520,tsiombe,-25.3,45.4833,75.06,77,60,4.47,MG,1727716107
521,kamianets-podilskyi,48.6667,26.5667,45.99,90,100,15.88,UA,1727716108
522,victorica,-36.2151,-65.4359,80.89,12,100,10.16,AR,1727716108
523,irbit,57.6705,63.071,56.35,55,100,9.01,RU,1727716108
524,crasna,47.1667,22.9,47.61,72,98,5.21,RO,1727716108
525,huarmey,-10.0681,-78.1522,69.4,74,39,12.3,PE,1727716108
526,hoeyang,38.7103,127.5983,62.65,97,100,5.88,KP,1727716108
527,mazamari,-11.3258,-74.5308,96.01,33,79,2.95,PE,1727716109
528,lobito,-12.3481,13.5456,73.38,80,20,8.16,AO,1727716024
529,tofol,5.3248,163.0078,84.24,70,100,18.68,FM,1727716109
530,tokar,18.4254,37.729,87.08,67,4,6.24,SD,1727716109
531,cruz del eje,-30.7264,-64.8039,96.49,23,3,13.67,AR,1727716109
532,taunggyi,20.7833,97.0333,67.69,97,100,3.31,MM,1727715877
533,caconda,-13.7333,15.0667,74.08,43,95,7.47,AO,1727716109
534,beipiao,41.7919,120.7792,46.33,64,74,3.53,CN,1727715858
535,sur,22.5667,59.5289,85.91,65,19,10.38,OM,1727715849
536,fenoarivo be,-18.4333,46.5667,74.3,32,0,4.32,MG,1727716110
537,pyt-yakh,60.7499,72.8582,53.42,67,97,11.05,RU,1727716110
538,attapeu,14.8,106.8333,75.0,98,48,0.92,LA,1727716110
539,kashgar,39.4547,75.9797,58.05,46,100,7.11,CN,1727716110
540,puerto aysen,-45.4,-72.7,40.12,91,88,2.39,CL,1727716110
541,qarchi gak,37.04,66.7889,67.64,44,1,10.16,AF,1727716111
542,novodvinsk,64.4165,40.8122,42.55,78,28,9.62,RU,1727716111
543,chinde,26.8212,87.7095,74.95,90,11,3.31,NP,1727716111
544,ayr,55.4627,-4.6339,53.58,94,100,6.91,GB,1727716111
545,de haan,51.272,3.0429,60.22,84,75,18.41,BE,1727716111
546,preobrazheniye,42.9019,133.9064,60.22,95,83,6.2,RU,1727716111
547,klaksvik,62.2266,-6.589,44.73,81,99,15.99,FO,1727716111
548,meadow lake,34.8014,-106.5436,78.66,33,2,5.91,US,1727716112
549,yurimaguas,-5.9,-76.0833,77.16,94,100,4.61,PE,1727716112
550,san fernando de apure,7.8878,-67.4724,88.23,60,51,3.6,VE,1727716112
551,kuta,-8.7233,115.1723,80.55,94,75,13.8,ID,1727716112
552,nikolayevsk-on-amure,53.1406,140.73,38.82,98,100,4.59,RU,1727715906
553,santa ana,33.7456,-117.8678,74.88,89,100,0.0,US,1727716112
554,namtsy,62.7161,129.6658,27.14,91,73,1.32,RU,1727716112
555,dhuusamarreeb,5.535,46.3861,86.4,50,99,14.07,SO,1727716112
556,simanggang,1.2472,111.4528,74.17,98,100,0.89,MY,1727716113
557,kotlas,61.2611,46.6556,43.27,74,60,5.97,RU,1727716113
558,lata,40.1629,-8.3327,71.56,58,5,7.87,PT,1727716113
559,isangel,-19.55,169.2667,73.72,88,37,2.01,VU,1727716067
560,papao,-17.75,-149.55,78.48,73,28,10.69,PF,1727716113
561,inari,68.906,27.0288,35.87,68,63,6.64,FI,1727716114
562,sinan,34.8262,126.1086,72.82,66,91,3.02,KR,1727716114
563,akrehamn,59.2667,5.1833,53.85,66,40,5.75,NO,1727716114
564,hamina,60.5697,27.1979,40.32,59,7,2.57,FI,1727716015
565,mount isa,-20.7333,139.5,74.97,31,0,16.11,AU,1727716114
566,victoria,22.2855,114.1577,91.26,66,100,5.99,HK,1727715887
567,usogorsk,63.4106,48.6872,41.23,83,27,7.47,RU,1727716114
568,sandnessjoen,66.0217,12.6316,48.42,81,75,26.46,NO,1727716114
569,imbituva,-25.23,-50.6044,89.78,19,0,4.36,BR,1727716115
570,yazman,29.1212,71.7446,95.94,26,80,4.81,PK,1727716115
571,touros,-5.1989,-35.4608,82.85,59,17,19.89,BR,1727716115
572,pangody,65.85,74.4859,40.46,72,76,16.98,RU,1727716115
